objects: 
    - "Cama"
    - "Cadeira"
    - "Mesa"
    - "Room"
rooms: 
        - { "name": "Quarto 1", "coordinates": [-5.995157854315332, 3.0687534759343076]}
        - { "name": "Quarto 2", "coordinates": [-2.6291205565668005, 3.936978604700303]}
        - { "name": "Escritorio", "coordinates": [0.3338533265150007, 3.8938500332742128]}
        - { "name": "Sanitario1", "coordinates": [0.6816980018583353, 0.9630639342257676]}
        - { "name": "Sanitario2", "coordinates": [1.7447975122639672, -1.4693745387618693]}
        - { "name": "Sala", "coordinates": [-1.5000041812678986, -3.999997180836298]}
        - { "name": "Cozinha", "coordinates": [-3.0660901519164545, -0.8197685726438128]}
        - { "name": "Vestibulo1", "coordinates": [-3.0243864212170455, 1.6197764742613625]}
        - { "name": "Vestibulo2", "coordinates": [-0.44446241721503893, -0.438300400827369]}
        - {"name": "Everywhere", "coordinates": [0,0]}
 